
{"country_count":245,"fetched":"2022-08-13T19:27:58Z","results":[{"capital_latitude":9.55,"capital_longitude":44.05,"capital_name":"Hargeisa","continent_name":"Africa","country_code":null,"country_name":"Somaliland"},{"capital_latitude":-54.283,"capital_longitude":-36.5,"capital_name":"King Edward Point","continent_name":"Antarctica","country_code":"GS","country_name":"South Georgia and South Sandwich Islands"},{"capital_latitude":-49.35,"capital_longitude":70.217,"capital_name":"Port-aux-Fran\u00c3\u0192\u00c2\u00a7ais","continent_name":"Antarctica","country_code":"TF","country_name":"French Southern and Antarctic Lands"},{"capital_latitude":31.767,"capital_longitude":35.233,"capital_name":"Jerusalem","continent_name":"Asia","country_code":"PS","country_name":"Palestine"},{"capital_latitude":60.117,"capital_longitude":19.9,"capital_name":"Mariehamn","continent_name":"Europe","country_code":"AX","country_name":"Aland Islands"},{"capital_latitude":-0.548,"capital_longitude":166.921,"capital_name":"Yaren","continent_name":"Australia","country_code":"NR","country_name":"Nauru"},{"capital_latitude":18.073,"capital_longitude":-63.082,"capital_name":"Marigot","continent_name":"North America","country_code":"MF","country_name":"Saint Martin"},{"capital_latitude":-9.167,"capital_longitude":-171.833,"capital_name":"Atafu","continent_name":"Australia","country_code":"TK","country_name":"Tokelau"},{"capital_latitude":27.154,"capital_longitude":-13.203,"capital_name":"El-Aai\u00c3\u0192\u00c2\u00ban","continent_name":"Africa","country_code":"EH","country_name":"Western Sahara"},{"capital_latitude":34.517,"capital_longitude":69.183,"capital_name":"Kabul","continent_name":"Asia","country_code":"AF","country_name":"Afghanistan"},{"capital_latitude":41.317,"capital_longitude":19.817,"capital_name":"Tirana","continent_name":"Europe","country_code":"AL","country_name":"Albania"},{"capital_latitude":36.75,"capital_longitude":3.05,"capital_name":"Algiers","continent_name":"Africa","country_code":"DZ","country_name":"Algeria"},{"capital_latitude":-14.267,"capital_longitude":-170.7,"capital_name":"Pago Pago","continent_name":"Australia","country_code":"AS","country_name":"American Samoa"},{"capital_latitude":42.5,"capital_longitude":1.517,"capital_name":"Andorra la Vella","continent_name":"Europe","country_code":"AD","country_name":"Andorra"},{"capital_latitude":-8.833,"capital_longitude":13.217,"capital_name":"Luanda","continent_name":"Africa","country_code":"AO","country_name":"Angola"},{"capital_latitude":18.217,"capital_longitude":-63.05,"capital_name":"The Valley","continent_name":"North America","country_code":"AI","country_name":"Anguilla"},{"capital_latitude":17.117,"capital_longitude":-61.85,"capital_name":"Saint John's","continent_name":"North America","country_code":"AG","country_name":"Antigua and Barbuda"},{"capital_latitude":-34.583,"capital_longitude":-58.667,"capital_name":"Buenos Aires","continent_name":"South America","country_code":"AR","country_name":"Argentina"},{"capital_latitude":40.167,"capital_longitude":44.5,"capital_name":"Yerevan","continent_name":"Europe","country_code":"AM","country_name":"Armenia"},{"capital_latitude":12.517,"capital_longitude":-70.033,"capital_name":"Oranjestad","continent_name":"North America","country_code":"AW","country_name":"Aruba"},{"capital_latitude":-35.267,"capital_longitude":149.133,"capital_name":"Canberra","continent_name":"Australia","country_code":"AU","country_name":"Australia"},{"capital_latitude":48.2,"capital_longitude":16.367,"capital_name":"Vienna","continent_name":"Europe","country_code":"AT","country_name":"Austria"},{"capital_latitude":40.383,"capital_longitude":49.867,"capital_name":"Baku","continent_name":"Europe","country_code":"AZ","country_name":"Azerbaijan"},{"capital_latitude":25.083,"capital_longitude":-77.35,"capital_name":"Nassau","continent_name":"North America","country_code":"BS","country_name":"Bahamas"},{"capital_latitude":26.233,"capital_longitude":50.567,"capital_name":"Manama","continent_name":"Asia","country_code":"BH","country_name":"Bahrain"},{"capital_latitude":23.717,"capital_longitude":90.4,"capital_name":"Dhaka","continent_name":"Asia","country_code":"BD","country_name":"Bangladesh"},{"capital_latitude":13.1,"capital_longitude":-59.617,"capital_name":"Bridgetown","continent_name":"North America","country_code":"BB","country_name":"Barbados"},{"capital_latitude":53.9,"capital_longitude":27.567,"capital_name":"Minsk","continent_name":"Europe","country_code":"BY","country_name":"Belarus"},{"capital_latitude":50.833,"capital_longitude":4.333,"capital_name":"Brussels","continent_name":"Europe","country_code":"BE","country_name":"Belgium"},{"capital_latitude":17.25,"capital_longitude":-88.767,"capital_name":"Belmopan","continent_name":"Central America","country_code":"BZ","country_name":"Belize"},{"capital_latitude":6.483,"capital_longitude":2.617,"capital_name":"Porto-Novo","continent_name":"Africa","country_code":"BJ","country_name":"Benin"},{"capital_latitude":32.283,"capital_longitude":-64.783,"capital_name":"Hamilton","continent_name":"North America","country_code":"BM","country_name":"Bermuda"},{"capital_latitude":27.467,"capital_longitude":89.633,"capital_name":"Thimphu","continent_name":"Asia","country_code":"BT","country_name":"Bhutan"},{"capital_latitude":-16.5,"capital_longitude":-68.15,"capital_name":"La Paz","continent_name":"South America","country_code":"BO","country_name":"Bolivia"},{"capital_latitude":43.867,"capital_longitude":18.417,"capital_name":"Sarajevo","continent_name":"Europe","country_code":"BA","country_name":"Bosnia and Herzegovina"},{"capital_latitude":-24.633,"capital_longitude":25.9,"capital_name":"Gaborone","continent_name":"Africa","country_code":"BW","country_name":"Botswana"},{"capital_latitude":-15.783,"capital_longitude":-47.917,"capital_name":"Brasilia","continent_name":"South America","country_code":"BR","country_name":"Brazil"},{"capital_latitude":18.417,"capital_longitude":-64.617,"capital_name":"Road Town","continent_name":"North America","country_code":"VG","country_name":"British Virgin Islands"},{"capital_latitude":4.883,"capital_longitude":114.933,"capital_name":"Bandar Seri Begawan","continent_name":"Asia","country_code":"BN","country_name":"Brunei Darussalam"},{"capital_latitude":42.683,"capital_longitude":23.317,"capital_name":"Sofia","continent_name":"Europe","country_code":"BG","country_name":"Bulgaria"},{"capital_latitude":12.367,"capital_longitude":-1.517,"capital_name":"Ouagadougou","continent_name":"Africa","country_code":"BF","country_name":"Burkina Faso"},{"capital_latitude":16.8,"capital_longitude":96.15,"capital_name":"Rangoon","continent_name":"Asia","country_code":"MM","country_name":"Myanmar"},{"capital_latitude":-3.367,"capital_longitude":29.35,"capital_name":"Bujumbura","continent_name":"Africa","country_code":"BI","country_name":"Burundi"},{"capital_latitude":11.55,"capital_longitude":104.917,"capital_name":"Phnom Penh","continent_name":"Asia","country_code":"KH","country_name":"Cambodia"},{"capital_latitude":3.867,"capital_longitude":11.517,"capital_name":"Yaounde","continent_name":"Africa","country_code":"CM","country_name":"Cameroon"},{"capital_latitude":45.417,"capital_longitude":-75.7,"capital_name":"Ottawa","continent_name":"Central America","country_code":"CA","country_name":"Canada"},{"capital_latitude":14.917,"capital_longitude":-23.517,"capital_name":"Praia","continent_name":"Africa","country_code":"CV","country_name":"Cape Verde"},{"capital_latitude":19.3,"capital_longitude":-81.383,"capital_name":"George Town","continent_name":"North America","country_code":"KY","country_name":"Cayman Islands"},{"capital_latitude":4.367,"capital_longitude":18.583,"capital_name":"Bangui","continent_name":"Africa","country_code":"CF","country_name":"Central African Republic"},{"capital_latitude":12.1,"capital_longitude":15.033,"capital_name":"N'Djamena","continent_name":"Africa","country_code":"TD","country_name":"Chad"},{"capital_latitude":-33.45,"capital_longitude":-70.667,"capital_name":"Santiago","continent_name":"South America","country_code":"CL","country_name":"Chile"},{"capital_latitude":39.917,"capital_longitude":116.383,"capital_name":"Beijing","continent_name":"Asia","country_code":"CN","country_name":"China"},{"capital_latitude":-10.417,"capital_longitude":105.717,"capital_name":"The Settlement","continent_name":"Australia","country_code":"CX","country_name":"Christmas Island"},{"capital_latitude":-12.167,"capital_longitude":96.833,"capital_name":"West Island","continent_name":"Australia","country_code":"CC","country_name":"Cocos Islands"},{"capital_latitude":4.6,"capital_longitude":-74.083,"capital_name":"Bogota","continent_name":"South America","country_code":"CO","country_name":"Colombia"},{"capital_latitude":-11.7,"capital_longitude":43.233,"capital_name":"Moroni","continent_name":"Africa","country_code":"KM","country_name":"Comoros"},{"capital_latitude":-4.317,"capital_longitude":15.3,"capital_name":"Kinshasa","continent_name":"Africa","country_code":"CD","country_name":"Democratic Republic of the Congo"},{"capital_latitude":-4.25,"capital_longitude":15.283,"capital_name":"Brazzaville","continent_name":"Africa","country_code":"CG","country_name":"Republic of Congo"},{"capital_latitude":-21.2,"capital_longitude":-159.767,"capital_name":"Avarua","continent_name":"Australia","country_code":"CK","country_name":"Cook Islands"},{"capital_latitude":9.933,"capital_longitude":-84.083,"capital_name":"San Jose","continent_name":"Central America","country_code":"CR","country_name":"Costa Rica"},{"capital_latitude":6.817,"capital_longitude":-5.267,"capital_name":"Yamoussoukro","continent_name":"Africa","country_code":"CI","country_name":"Cote d'Ivoire"},{"capital_latitude":45.8,"capital_longitude":16.0,"capital_name":"Zagreb","continent_name":"Europe","country_code":"HR","country_name":"Croatia"},{"capital_latitude":23.117,"capital_longitude":-82.35,"capital_name":"Havana","continent_name":"North America","country_code":"CU","country_name":"Cuba"},{"capital_latitude":12.1,"capital_longitude":-68.917,"capital_name":"Willemstad","continent_name":"North America","country_code":"CW","country_name":"Cura\u00c3\u0192\u00c2\u00a7ao"},{"capital_latitude":35.167,"capital_longitude":33.367,"capital_name":"Nicosia","continent_name":"Europe","country_code":"CY","country_name":"Cyprus"},{"capital_latitude":50.083,"capital_longitude":14.467,"capital_name":"Prague","continent_name":"Europe","country_code":"CZ","country_name":"Czech Republic"},{"capital_latitude":55.667,"capital_longitude":12.583,"capital_name":"Copenhagen","continent_name":"Europe","country_code":"DK","country_name":"Denmark"},{"capital_latitude":11.583,"capital_longitude":43.15,"capital_name":"Djibouti","continent_name":"Africa","country_code":"DJ","country_name":"Djibouti"},{"capital_latitude":15.3,"capital_longitude":-61.4,"capital_name":"Roseau","continent_name":"North America","country_code":"DM","country_name":"Dominica"},{"capital_latitude":18.467,"capital_longitude":-69.9,"capital_name":"Santo Domingo","continent_name":"North America","country_code":"DO","country_name":"Dominican Republic"},{"capital_latitude":-0.217,"capital_longitude":-78.5,"capital_name":"Quito","continent_name":"South America","country_code":"EC","country_name":"Ecuador"},{"capital_latitude":30.05,"capital_longitude":31.25,"capital_name":"Cairo","continent_name":"Africa","country_code":"EG","country_name":"Egypt"},{"capital_latitude":13.7,"capital_longitude":-89.2,"capital_name":"San Salvador","continent_name":"Central America","country_code":"SV","country_name":"El Salvador"},{"capital_latitude":3.75,"capital_longitude":8.783,"capital_name":"Malabo","continent_name":"Africa","country_code":"GQ","country_name":"Equatorial Guinea"},{"capital_latitude":15.333,"capital_longitude":38.933,"capital_name":"Asmara","continent_name":"Africa","country_code":"ER","country_name":"Eritrea"},{"capital_latitude":59.433,"capital_longitude":24.717,"capital_name":"Tallinn","continent_name":"Europe","country_code":"EE","country_name":"Estonia"},{"capital_latitude":9.033,"capital_longitude":38.7,"capital_name":"Addis Ababa","continent_name":"Africa","country_code":"ET","country_name":"Ethiopia"},{"capital_latitude":-51.7,"capital_longitude":-57.85,"capital_name":"Stanley","continent_name":"South America","country_code":"FK","country_name":"Falkland Islands"},{"capital_latitude":62.0,"capital_longitude":-6.767,"capital_name":"Torshavn","continent_name":"Europe","country_code":"FO","country_name":"Faroe Islands"},{"capital_latitude":-18.133,"capital_longitude":178.417,"capital_name":"Suva","continent_name":"Australia","country_code":"FJ","country_name":"Fiji"},{"capital_latitude":60.167,"capital_longitude":24.933,"capital_name":"Helsinki","continent_name":"Europe","country_code":"FI","country_name":"Finland"},{"capital_latitude":48.867,"capital_longitude":2.333,"capital_name":"Paris","continent_name":"Europe","country_code":"FR","country_name":"France"},{"capital_latitude":-17.533,"capital_longitude":-149.567,"capital_name":"Papeete","continent_name":"Australia","country_code":"PF","country_name":"French Polynesia"},{"capital_latitude":0.383,"capital_longitude":9.45,"capital_name":"Libreville","continent_name":"Africa","country_code":"GA","country_name":"Gabon"},{"capital_latitude":13.45,"capital_longitude":-16.567,"capital_name":"Banjul","continent_name":"Africa","country_code":"GM","country_name":"The Gambia"},{"capital_latitude":41.683,"capital_longitude":44.833,"capital_name":"Tbilisi","continent_name":"Europe","country_code":"GE","country_name":"Georgia"},{"capital_latitude":52.517,"capital_longitude":13.4,"capital_name":"Berlin","continent_name":"Europe","country_code":"DE","country_name":"Germany"},{"capital_latitude":5.55,"capital_longitude":-0.217,"capital_name":"Accra","continent_name":"Africa","country_code":"GH","country_name":"Ghana"},{"capital_latitude":36.133,"capital_longitude":-5.35,"capital_name":"Gibraltar","continent_name":"Europe","country_code":"GI","country_name":"Gibraltar"},{"capital_latitude":37.983,"capital_longitude":23.733,"capital_name":"Athens","continent_name":"Europe","country_code":"GR","country_name":"Greece"},{"capital_latitude":64.183,"capital_longitude":-51.75,"capital_name":"Nuuk","continent_name":"Central America","country_code":"GL","country_name":"Greenland"},{"capital_latitude":12.05,"capital_longitude":-61.75,"capital_name":"Saint George's","continent_name":"North America","country_code":"GD","country_name":"Grenada"},{"capital_latitude":13.467,"capital_longitude":144.733,"capital_name":"Hagatna","continent_name":"Australia","country_code":"GU","country_name":"Guam"},{"capital_latitude":14.617,"capital_longitude":-90.517,"capital_name":"Guatemala City","continent_name":"Central America","country_code":"GT","country_name":"Guatemala"},{"capital_latitude":49.45,"capital_longitude":-2.533,"capital_name":"Saint Peter Port","continent_name":"Europe","country_code":"GG","country_name":"Guernsey"},{"capital_latitude":9.5,"capital_longitude":-13.7,"capital_name":"Conakry","continent_name":"Africa","country_code":"GN","country_name":"Guinea"},{"capital_latitude":11.85,"capital_longitude":-15.583,"capital_name":"Bissau","continent_name":"Africa","country_code":"GW","country_name":"Guinea-Bissau"},{"capital_latitude":6.8,"capital_longitude":-58.15,"capital_name":"Georgetown","continent_name":"South America","country_code":"GY","country_name":"Guyana"},{"capital_latitude":18.533,"capital_longitude":-72.333,"capital_name":"Port-au-Prince","continent_name":"North America","country_code":"HT","country_name":"Haiti"},{"capital_latitude":41.9,"capital_longitude":12.45,"capital_name":"Vatican City","continent_name":"Europe","country_code":"VA","country_name":"Vatican City"},{"capital_latitude":14.1,"capital_longitude":-87.217,"capital_name":"Tegucigalpa","continent_name":"Central America","country_code":"HN","country_name":"Honduras"},{"capital_latitude":47.5,"capital_longitude":19.083,"capital_name":"Budapest","continent_name":"Europe","country_code":"HU","country_name":"Hungary"},{"capital_latitude":64.15,"capital_longitude":-21.95,"capital_name":"Reykjavik","continent_name":"Europe","country_code":"IS","country_name":"Iceland"},{"capital_latitude":28.6,"capital_longitude":77.2,"capital_name":"New Delhi","continent_name":"Asia","country_code":"IN","country_name":"India"},{"capital_latitude":-6.167,"capital_longitude":106.817,"capital_name":"Jakarta","continent_name":"Asia","country_code":"ID","country_name":"Indonesia"},{"capital_latitude":35.7,"capital_longitude":51.417,"capital_name":"Tehran","continent_name":"Asia","country_code":"IR","country_name":"Iran"},{"capital_latitude":33.333,"capital_longitude":44.4,"capital_name":"Baghdad","continent_name":"Asia","country_code":"IQ","country_name":"Iraq"},{"capital_latitude":53.317,"capital_longitude":-6.233,"capital_name":"Dublin","continent_name":"Europe","country_code":"IE","country_name":"Ireland"},{"capital_latitude":54.15,"capital_longitude":-4.483,"capital_name":"Douglas","continent_name":"Europe","country_code":"IM","country_name":"Isle of Man"},{"capital_latitude":31.767,"capital_longitude":35.233,"capital_name":"Jerusalem","continent_name":"Asia","country_code":"IL","country_name":"Israel"},{"capital_latitude":41.9,"capital_longitude":12.483,"capital_name":"Rome","continent_name":"Europe","country_code":"IT","country_name":"Italy"},{"capital_latitude":18.0,"capital_longitude":-76.8,"capital_name":"Kingston","continent_name":"North America","country_code":"JM","country_name":"Jamaica"},{"capital_latitude":35.683,"capital_longitude":139.75,"capital_name":"Tokyo","continent_name":"Asia","country_code":"JP","country_name":"Japan"},{"capital_latitude":49.183,"capital_longitude":-2.1,"capital_name":"Saint Helier","continent_name":"Europe","country_code":"JE","country_name":"Jersey"},{"capital_latitude":31.95,"capital_longitude":35.933,"capital_name":"Amman","continent_name":"Asia","country_code":"JO","country_name":"Jordan"},{"capital_latitude":51.167,"capital_longitude":71.417,"capital_name":"Astana","continent_name":"Asia","country_code":"KZ","country_name":"Kazakhstan"},{"capital_latitude":-1.283,"capital_longitude":36.817,"capital_name":"Nairobi","continent_name":"Africa","country_code":"KE","country_name":"Kenya"},{"capital_latitude":-0.883,"capital_longitude":169.533,"capital_name":"Tarawa","continent_name":"Australia","country_code":"KI","country_name":"Kiribati"},{"capital_latitude":39.017,"capital_longitude":125.75,"capital_name":"Pyongyang","continent_name":"Asia","country_code":"KP","country_name":"North Korea"},{"capital_latitude":37.55,"capital_longitude":126.983,"capital_name":"Seoul","continent_name":"Asia","country_code":"KR","country_name":"South Korea"},{"capital_latitude":42.667,"capital_longitude":21.167,"capital_name":"Pristina","continent_name":"Europe","country_code":"KO","country_name":"Kosovo"},{"capital_latitude":29.367,"capital_longitude":47.967,"capital_name":"Kuwait City","continent_name":"Asia","country_code":"KW","country_name":"Kuwait"},{"capital_latitude":42.867,"capital_longitude":74.6,"capital_name":"Bishkek","continent_name":"Asia","country_code":"KG","country_name":"Kyrgyzstan"},{"capital_latitude":17.967,"capital_longitude":102.6,"capital_name":"Vientiane","continent_name":"Asia","country_code":"LA","country_name":"Laos"},{"capital_latitude":56.95,"capital_longitude":24.1,"capital_name":"Riga","continent_name":"Europe","country_code":"LV","country_name":"Latvia"},{"capital_latitude":33.867,"capital_longitude":35.5,"capital_name":"Beirut","continent_name":"Asia","country_code":"LB","country_name":"Lebanon"},{"capital_latitude":-29.317,"capital_longitude":27.483,"capital_name":"Maseru","continent_name":"Africa","country_code":"LS","country_name":"Lesotho"},{"capital_latitude":6.3,"capital_longitude":-10.8,"capital_name":"Monrovia","continent_name":"Africa","country_code":"LR","country_name":"Liberia"},{"capital_latitude":32.883,"capital_longitude":13.167,"capital_name":"Tripoli","continent_name":"Africa","country_code":"LY","country_name":"Libya"},{"capital_latitude":47.133,"capital_longitude":9.517,"capital_name":"Vaduz","continent_name":"Europe","country_code":"LI","country_name":"Liechtenstein"},{"capital_latitude":54.683,"capital_longitude":25.317,"capital_name":"Vilnius","continent_name":"Europe","country_code":"LT","country_name":"Lithuania"},{"capital_latitude":49.6,"capital_longitude":6.117,"capital_name":"Luxembourg","continent_name":"Europe","country_code":"LU","country_name":"Luxembourg"},{"capital_latitude":42.0,"capital_longitude":21.433,"capital_name":"Skopje","continent_name":"Europe","country_code":"MK","country_name":"Macedonia"},{"capital_latitude":-18.917,"capital_longitude":47.517,"capital_name":"Antananarivo","continent_name":"Africa","country_code":"MG","country_name":"Madagascar"},{"capital_latitude":-13.967,"capital_longitude":33.783,"capital_name":"Lilongwe","continent_name":"Africa","country_code":"MW","country_name":"Malawi"},{"capital_latitude":3.167,"capital_longitude":101.7,"capital_name":"Kuala Lumpur","continent_name":"Asia","country_code":"MY","country_name":"Malaysia"},{"capital_latitude":4.167,"capital_longitude":73.5,"capital_name":"Male","continent_name":"Asia","country_code":"MV","country_name":"Maldives"},{"capital_latitude":12.65,"capital_longitude":-8.0,"capital_name":"Bamako","continent_name":"Africa","country_code":"ML","country_name":"Mali"},{"capital_latitude":35.883,"capital_longitude":14.5,"capital_name":"Valletta","continent_name":"Europe","country_code":"MT","country_name":"Malta"},{"capital_latitude":7.1,"capital_longitude":171.383,"capital_name":"Majuro","continent_name":"Australia","country_code":"MH","country_name":"Marshall Islands"},{"capital_latitude":18.067,"capital_longitude":-15.967,"capital_name":"Nouakchott","continent_name":"Africa","country_code":"MR","country_name":"Mauritania"},{"capital_latitude":-20.15,"capital_longitude":57.483,"capital_name":"Port Louis","continent_name":"Africa","country_code":"MU","country_name":"Mauritius"},{"capital_latitude":19.433,"capital_longitude":-99.133,"capital_name":"Mexico City","continent_name":"Central America","country_code":"MX","country_name":"Mexico"},{"capital_latitude":6.917,"capital_longitude":158.15,"capital_name":"Palikir","continent_name":"Australia","country_code":"FM","country_name":"Federated States of Micronesia"},{"capital_latitude":47.0,"capital_longitude":28.85,"capital_name":"Chisinau","continent_name":"Europe","country_code":"MD","country_name":"Moldova"},{"capital_latitude":43.733,"capital_longitude":7.417,"capital_name":"Monaco","continent_name":"Europe","country_code":"MC","country_name":"Monaco"},{"capital_latitude":47.917,"capital_longitude":106.917,"capital_name":"Ulaanbaatar","continent_name":"Asia","country_code":"MN","country_name":"Mongolia"},{"capital_latitude":42.433,"capital_longitude":19.267,"capital_name":"Podgorica","continent_name":"Europe","country_code":"ME","country_name":"Montenegro"},{"capital_latitude":16.7,"capital_longitude":-62.217,"capital_name":"Plymouth","continent_name":"North America","country_code":"MS","country_name":"Montserrat"},{"capital_latitude":34.017,"capital_longitude":-6.817,"capital_name":"Rabat","continent_name":"Africa","country_code":"MA","country_name":"Morocco"},{"capital_latitude":-25.95,"capital_longitude":32.583,"capital_name":"Maputo","continent_name":"Africa","country_code":"MZ","country_name":"Mozambique"},{"capital_latitude":-22.567,"capital_longitude":17.083,"capital_name":"Windhoek","continent_name":"Africa","country_code":"NA","country_name":"Namibia"},{"capital_latitude":27.717,"capital_longitude":85.317,"capital_name":"Kathmandu","continent_name":"Asia","country_code":"NP","country_name":"Nepal"},{"capital_latitude":52.35,"capital_longitude":4.917,"capital_name":"Amsterdam","continent_name":"Europe","country_code":"NL","country_name":"Netherlands"},{"capital_latitude":-22.267,"capital_longitude":166.45,"capital_name":"Noumea","continent_name":"Australia","country_code":"NC","country_name":"New Caledonia"},{"capital_latitude":-41.3,"capital_longitude":174.783,"capital_name":"Wellington","continent_name":"Australia","country_code":"NZ","country_name":"New Zealand"},{"capital_latitude":12.133,"capital_longitude":-86.25,"capital_name":"Managua","continent_name":"Central America","country_code":"NI","country_name":"Nicaragua"},{"capital_latitude":13.517,"capital_longitude":2.117,"capital_name":"Niamey","continent_name":"Africa","country_code":"NE","country_name":"Niger"},{"capital_latitude":9.083,"capital_longitude":7.533,"capital_name":"Abuja","continent_name":"Africa","country_code":"NG","country_name":"Nigeria"},{"capital_latitude":-19.017,"capital_longitude":-169.917,"capital_name":"Alofi","continent_name":"Australia","country_code":"NU","country_name":"Niue"},{"capital_latitude":-29.05,"capital_longitude":167.967,"capital_name":"Kingston","continent_name":"Australia","country_code":"NF","country_name":"Norfolk Island"},{"capital_latitude":15.2,"capital_longitude":145.75,"capital_name":"Saipan","continent_name":"Australia","country_code":"MP","country_name":"Northern Mariana Islands"},{"capital_latitude":59.917,"capital_longitude":10.75,"capital_name":"Oslo","continent_name":"Europe","country_code":"NO","country_name":"Norway"},{"capital_latitude":23.617,"capital_longitude":58.583,"capital_name":"Muscat","continent_name":"Asia","country_code":"OM","country_name":"Oman"},{"capital_latitude":33.683,"capital_longitude":73.05,"capital_name":"Islamabad","continent_name":"Asia","country_code":"PK","country_name":"Pakistan"},{"capital_latitude":7.483,"capital_longitude":134.633,"capital_name":"Melekeok","continent_name":"Australia","country_code":"PW","country_name":"Palau"},{"capital_latitude":8.967,"capital_longitude":-79.533,"capital_name":"Panama City","continent_name":"Central America","country_code":"PA","country_name":"Panama"},{"capital_latitude":-9.45,"capital_longitude":147.183,"capital_name":"Port Moresby","continent_name":"Australia","country_code":"PG","country_name":"Papua New Guinea"},{"capital_latitude":-25.267,"capital_longitude":-57.667,"capital_name":"Asuncion","continent_name":"South America","country_code":"PY","country_name":"Paraguay"},{"capital_latitude":-12.05,"capital_longitude":-77.05,"capital_name":"Lima","continent_name":"South America","country_code":"PE","country_name":"Peru"},{"capital_latitude":14.6,"capital_longitude":120.967,"capital_name":"Manila","continent_name":"Asia","country_code":"PH","country_name":"Philippines"},{"capital_latitude":-25.067,"capital_longitude":-130.083,"capital_name":"Adamstown","continent_name":"Australia","country_code":"PN","country_name":"Pitcairn Islands"},{"capital_latitude":52.25,"capital_longitude":21.0,"capital_name":"Warsaw","continent_name":"Europe","country_code":"PL","country_name":"Poland"},{"capital_latitude":38.717,"capital_longitude":-9.133,"capital_name":"Lisbon","continent_name":"Europe","country_code":"PT","country_name":"Portugal"},{"capital_latitude":18.467,"capital_longitude":-66.117,"capital_name":"San Juan","continent_name":"North America","country_code":"PR","country_name":"Puerto Rico"},{"capital_latitude":25.283,"capital_longitude":51.533,"capital_name":"Doha","continent_name":"Asia","country_code":"QA","country_name":"Qatar"},{"capital_latitude":44.433,"capital_longitude":26.1,"capital_name":"Bucharest","continent_name":"Europe","country_code":"RO","country_name":"Romania"},{"capital_latitude":55.75,"capital_longitude":37.6,"capital_name":"Moscow","continent_name":"Europe","country_code":"RU","country_name":"Russia"},{"capital_latitude":-1.95,"capital_longitude":30.05,"capital_name":"Kigali","continent_name":"Africa","country_code":"RW","country_name":"Rwanda"},{"capital_latitude":17.883,"capital_longitude":-62.85,"capital_name":"Gustavia","continent_name":"North America","country_code":"BL","country_name":"Saint Barthelemy"},{"capital_latitude":-15.933,"capital_longitude":-5.717,"capital_name":"Jamestown","continent_name":"Africa","country_code":"SH","country_name":"Saint Helena"},{"capital_latitude":17.3,"capital_longitude":-62.717,"capital_name":"Basseterre","continent_name":"North America","country_code":"KN","country_name":"Saint Kitts and Nevis"},{"capital_latitude":14.0,"capital_longitude":-61.0,"capital_name":"Castries","continent_name":"North America","country_code":"LC","country_name":"Saint Lucia"},{"capital_latitude":46.767,"capital_longitude":-56.183,"capital_name":"Saint-Pierre","continent_name":"Central America","country_code":"PM","country_name":"Saint Pierre and Miquelon"},{"capital_latitude":13.133,"capital_longitude":-61.217,"capital_name":"Kingstown","continent_name":"Central America","country_code":"VC","country_name":"Saint Vincent and the Grenadines"},{"capital_latitude":-13.817,"capital_longitude":-171.767,"capital_name":"Apia","continent_name":"Australia","country_code":"WS","country_name":"Samoa"},{"capital_latitude":43.933,"capital_longitude":12.417,"capital_name":"San Marino","continent_name":"Europe","country_code":"SM","country_name":"San Marino"},{"capital_latitude":0.333,"capital_longitude":6.733,"capital_name":"Sao Tome","continent_name":"Africa","country_code":"ST","country_name":"Sao Tome and Principe"},{"capital_latitude":24.65,"capital_longitude":46.7,"capital_name":"Riyadh","continent_name":"Asia","country_code":"SA","country_name":"Saudi Arabia"},{"capital_latitude":14.733,"capital_longitude":-17.633,"capital_name":"Dakar","continent_name":"Africa","country_code":"SN","country_name":"Senegal"},{"capital_latitude":44.833,"capital_longitude":20.5,"capital_name":"Belgrade","continent_name":"Europe","country_code":"RS","country_name":"Serbia"},{"capital_latitude":-4.617,"capital_longitude":55.45,"capital_name":"Victoria","continent_name":"Africa","country_code":"SC","country_name":"Seychelles"},{"capital_latitude":8.483,"capital_longitude":-13.233,"capital_name":"Freetown","continent_name":"Africa","country_code":"SL","country_name":"Sierra Leone"},{"capital_latitude":1.283,"capital_longitude":103.85,"capital_name":"Singapore","continent_name":"Asia","country_code":"SG","country_name":"Singapore"},{"capital_latitude":18.017,"capital_longitude":-63.033,"capital_name":"Philipsburg","continent_name":"North America","country_code":"SX","country_name":"Sint Maarten"},{"capital_latitude":48.15,"capital_longitude":17.117,"capital_name":"Bratislava","continent_name":"Europe","country_code":"SK","country_name":"Slovakia"},{"capital_latitude":46.05,"capital_longitude":14.517,"capital_name":"Ljubljana","continent_name":"Europe","country_code":"SI","country_name":"Slovenia"},{"capital_latitude":-9.433,"capital_longitude":159.95,"capital_name":"Honiara","continent_name":"Australia","country_code":"SB","country_name":"Solomon Islands"},{"capital_latitude":2.067,"capital_longitude":45.333,"capital_name":"Mogadishu","continent_name":"Africa","country_code":"SO","country_name":"Somalia"},{"capital_latitude":-25.7,"capital_longitude":28.217,"capital_name":"Pretoria","continent_name":"Africa","country_code":"ZA","country_name":"South Africa"},{"capital_latitude":4.85,"capital_longitude":31.617,"capital_name":"Juba","continent_name":"Africa","country_code":"SS","country_name":"South Sudan"},{"capital_latitude":40.4,"capital_longitude":-3.683,"capital_name":"Madrid","continent_name":"Europe","country_code":"ES","country_name":"Spain"},{"capital_latitude":6.917,"capital_longitude":79.833,"capital_name":"Colombo","continent_name":"Asia","country_code":"LK","country_name":"Sri Lanka"},{"capital_latitude":15.6,"capital_longitude":32.533,"capital_name":"Khartoum","continent_name":"Africa","country_code":"SD","country_name":"Sudan"},{"capital_latitude":5.833,"capital_longitude":-55.167,"capital_name":"Paramaribo","continent_name":"South America","country_code":"SR","country_name":"Suriname"},{"capital_latitude":78.217,"capital_longitude":15.633,"capital_name":"Longyearbyen","continent_name":"Europe","country_code":"SJ","country_name":"Svalbard"},{"capital_latitude":-26.317,"capital_longitude":31.133,"capital_name":"Mbabane","continent_name":"Africa","country_code":"SZ","country_name":"Swaziland"},{"capital_latitude":59.333,"capital_longitude":18.05,"capital_name":"Stockholm","continent_name":"Europe","country_code":"SE","country_name":"Sweden"},{"capital_latitude":46.917,"capital_longitude":7.467,"capital_name":"Bern","continent_name":"Europe","country_code":"CH","country_name":"Switzerland"},{"capital_latitude":33.5,"capital_longitude":36.3,"capital_name":"Damascus","continent_name":"Asia","country_code":"SY","country_name":"Syria"},{"capital_latitude":25.033,"capital_longitude":121.517,"capital_name":"Taipei","continent_name":"Asia","country_code":"TW","country_name":"Taiwan"},{"capital_latitude":38.55,"capital_longitude":68.767,"capital_name":"Dushanbe","continent_name":"Asia","country_code":"TJ","country_name":"Tajikistan"},{"capital_latitude":-6.8,"capital_longitude":39.283,"capital_name":"Dar es Salaam","continent_name":"Africa","country_code":"TZ","country_name":"Tanzania"},{"capital_latitude":13.75,"capital_longitude":100.517,"capital_name":"Bangkok","continent_name":"Asia","country_code":"TH","country_name":"Thailand"},{"capital_latitude":-8.583,"capital_longitude":125.6,"capital_name":"Dili","continent_name":"Asia","country_code":"TL","country_name":"Timor-Leste"},{"capital_latitude":6.117,"capital_longitude":1.217,"capital_name":"Lome","continent_name":"Africa","country_code":"TG","country_name":"Togo"},{"capital_latitude":-21.133,"capital_longitude":-175.2,"capital_name":"Nuku'alofa","continent_name":"Australia","country_code":"TO","country_name":"Tonga"},{"capital_latitude":10.65,"capital_longitude":-61.517,"capital_name":"Port of Spain","continent_name":"North America","country_code":"TT","country_name":"Trinidad and Tobago"},{"capital_latitude":36.8,"capital_longitude":10.183,"capital_name":"Tunis","continent_name":"Africa","country_code":"TN","country_name":"Tunisia"},{"capital_latitude":39.933,"capital_longitude":32.867,"capital_name":"Ankara","continent_name":"Europe","country_code":"TR","country_name":"Turkey"},{"capital_latitude":37.95,"capital_longitude":58.383,"capital_name":"Ashgabat","continent_name":"Asia","country_code":"TM","country_name":"Turkmenistan"},{"capital_latitude":21.467,"capital_longitude":-71.133,"capital_name":"Grand Turk","continent_name":"North America","country_code":"TC","country_name":"Turks and Caicos Islands"},{"capital_latitude":-8.517,"capital_longitude":179.217,"capital_name":"Funafuti","continent_name":"Australia","country_code":"TV","country_name":"Tuvalu"},{"capital_latitude":0.317,"capital_longitude":32.55,"capital_name":"Kampala","continent_name":"Africa","country_code":"UG","country_name":"Uganda"},{"capital_latitude":50.433,"capital_longitude":30.517,"capital_name":"Kyiv","continent_name":"Europe","country_code":"UA","country_name":"Ukraine"},{"capital_latitude":24.467,"capital_longitude":54.367,"capital_name":"Abu Dhabi","continent_name":"Asia","country_code":"AE","country_name":"United Arab Emirates"},{"capital_latitude":51.5,"capital_longitude":-0.083,"capital_name":"London","continent_name":"Europe","country_code":"GB","country_name":"United Kingdom"},{"capital_latitude":38.883,"capital_longitude":-77.0,"capital_name":"Washington D.C.","continent_name":"North America","country_code":"US","country_name":"United States"},{"capital_latitude":-34.85,"capital_longitude":-56.167,"capital_name":"Montevideo","continent_name":"South America","country_code":"UY","country_name":"Uruguay"},{"capital_latitude":41.317,"capital_longitude":69.25,"capital_name":"Tashkent","continent_name":"Asia","country_code":"UZ","country_name":"Uzbekistan"},{"capital_latitude":-17.733,"capital_longitude":168.317,"capital_name":"Port-Vila","continent_name":"Australia","country_code":"VU","country_name":"Vanuatu"},{"capital_latitude":10.483,"capital_longitude":-66.867,"capital_name":"Caracas","continent_name":"South America","country_code":"VE","country_name":"Venezuela"},{"capital_latitude":21.033,"capital_longitude":105.85,"capital_name":"Hanoi","continent_name":"Asia","country_code":"VN","country_name":"Vietnam"},{"capital_latitude":18.35,"capital_longitude":-64.933,"capital_name":"Charlotte Amalie","continent_name":"North America","country_code":"VI","country_name":"US Virgin Islands"},{"capital_latitude":-13.95,"capital_longitude":-171.933,"capital_name":"Mata-Utu","continent_name":"Australia","country_code":"WF","country_name":"Wallis and Futuna"},{"capital_latitude":15.35,"capital_longitude":44.2,"capital_name":"Sanaa","continent_name":"Asia","country_code":"YE","country_name":"Yemen"},{"capital_latitude":-15.417,"capital_longitude":28.283,"capital_name":"Lusaka","continent_name":"Africa","country_code":"ZM","country_name":"Zambia"},{"capital_latitude":-17.817,"capital_longitude":31.033,"capital_name":"Harare","continent_name":"Africa","country_code":"ZW","country_name":"Zimbabwe"},{"capital_latitude":38.883,"capital_longitude":-77.0,"capital_name":"Washington","continent_name":"North America","country_code":"UM","country_name":"US Minor Outlying Islands"},{"capital_latitude":0.0,"capital_longitude":0.0,"capital_name":null,"continent_name":"Antarctica","country_code":"AQ","country_name":"Antarctica"},{"capital_latitude":35.183,"capital_longitude":33.367,"capital_name":"North Nicosia","continent_name":"Europe","country_code":null,"country_name":"Northern Cyprus"},{"capital_latitude":0.0,"capital_longitude":0.0,"capital_name":null,"continent_name":"Asia","country_code":"HK","country_name":"Hong Kong"},{"capital_latitude":0.0,"capital_longitude":0.0,"capital_name":null,"continent_name":"Antarctica","country_code":"HM","country_name":"Heard Island and McDonald Islands"},{"capital_latitude":-7.3,"capital_longitude":72.4,"capital_name":"Diego Garcia","continent_name":"Africa","country_code":"IO","country_name":"British Indian Ocean Territory"},{"capital_latitude":0.0,"capital_longitude":0.0,"capital_name":null,"continent_name":"Asia","country_code":"MO","country_name":"Macau"}]}
